record_number,federal_provider_number,Name,Beds,average_number_of_residents_per_day,provider_address,provider_city,provider_zip_code,lat,lon,County,County_Code,FIPS
45781,345000,Autumn Care Of Biscoe,141,71.5,401 LAMBERT ROAD,BISCOE,27209,35.36561068,-79.78957942,Montgomery,123,37123
45786,345001,Hillcrest Convalescent Center,86,75.8,1417 W PETTIGREW STREET,DURHAM,27705,36.0043107,-78.919296,Durham,63,37063
45791,345002,Cypress Pointe Rehabilitation Center,90,56.3,2006 SOUTH 16TH STREET,WILMINGTON,28401,34.21227102,-77.926083,New Hanover,129,37129
45796,345003,Silas Creek Rehabilitation Center,90,64.0,3350 SILAS CREEK PARKWAY,WINSTON-SALEM,27103,36.07483549,-80.29903056,Forsyth,67,37067
45801,345004,Person Memorial Hospital,56,48.4,615 RIDGE ROAD,ROXBORO,27573,36.40848405,-78.98524838,Person,145,37145
45806,345006,Blumenthal Nursing & Rehabilitation Center,134,100.4,3724 WIRELESS DRIVE,GREENSBORO,27455,36.12005761,-79.82516417,Guilford,81,37081
45811,345008,"The Citadel At Myers Park, Llc",133,58.2,300 PROVIDENCE ROAD,CHARLOTTE,28207,35.205663,-80.824276,Mecklenburg,119,37119
45816,345009,The Oaks At Whitaker Glen-Mayview,91,64.9,513 EAST WHITAKER MILL ROAD,RALEIGH,27608,35.80692545,-78.63347294,Wake,183,37183
45821,345010,Accordius Health At Asheville,77,57.2,500 BEAVERDAM ROAD,ASHEVILLE,28804,35.642105,-82.528758,Buncombe,21,37021
45826,345011,Accordius Health At Lexington,106,70.7,279 BRIAN CENTER DRIVE,LEXINGTON,27292,35.79994638,-80.2887953,Davidson,57,37057
45831,345013,Peak Resources - Charlotte,142,104.2,3223 CENTRAL AVENUE,CHARLOTTE,28205,35.2164146,-80.7883847,Mecklenburg,119,37119
45836,345014,"Accordius Health At Greensboro, Llc",105,58.5,1201 CAROLINA STREET,GREENSBORO,27401,36.08896112,-79.79035046,Guilford,81,37081
45841,345015,Clapp'S Convalescent Nursing Home Inc,96,74.2,500 MOUNTAIN TOP DRIVE,ASHEBORO,27203,35.70939003,-79.78825029,Randolph,151,37151
45846,345024,Clapps Nursing Center Inc,118,78.1,5229 APPOMATTOX ROAD,PLEASANT GARDEN,27313,35.95883772,-79.75742897,Guilford,81,37081
45851,345026,Royal Park Rehab & Health Ctr Of Matthews,169,116.7,2700 ROYAL COMMONS LANE,MATTHEWS,28105,35.115797,-80.693025,Mecklenburg,119,37119
45856,345036,Elizabeth City Health And Rehabilitation,146,116.1,1075 US HIGHWAY 17 SOUTH,ELIZABETH CITY,27909,36.294457,-76.223241,Pasquotank,139,37139
45861,345039,Summerstone Health And Rehabilitation Center,120,70.8,485 VETERANS WAY,KERNERSVILLE,27284,36.09402,-80.04776,Forsyth,67,37067
45866,345044,St Joseph Of The Pines Health Center,176,52.2,103 GOSSMAN DRIVE,PINEHURST,28374,35.218963,-79.375802,Moore,125,37125
45871,345045,The Foley Center At Chestnut Ridge,92,70.2,621 CHESTNUT RIDGE PARKWAY,BLOWING ROCK,28605,36.14729,-81.65808,Watauga,189,37189
45876,345048,Mountain Ridge Health And Rehab,97,85.2,611 OLD US HIGHWAY 70 EAST,BLACK MOUNTAIN,28711,35.6108428,-82.3377915,Buncombe,21,37021
45881,345049,Raleigh Rehabilitation Center,157,78.6,616 WADE AVENUE,RALEIGH,27605,35.79677581,-78.64971577,Wake,183,37183
45886,345050,Jacob'S Creek Nursing And Rehabilitation Center,170,109.7,1721 BALD HILL LOOP,MADISON,27025,36.362636,-79.905143,Rockingham,157,37157
45891,345051,Anson Health And Rehabilitation,95,73.7,405 SOUTH GREENE STREET,WADESBORO,28170,34.9627379,-80.07742078,Anson,7,37007
45896,345053,Pettigrew Rehabilitation Center,96,52.3,1515 W PETTIGREW STREET,DURHAM,27705,36.0052578,-78.9213922,Durham,63,37063
45901,345054,Woodhaven Nurs & Alzheimer'S C,115,83.8,1150 PINE RUN DRIVE,LUMBERTON,28358,34.65847333,-78.99118649,Robeson,155,37155
45906,345061,Pruitthealth-Durham,125,87.0,3100 ERWIN ROAD,DURHAM,27705,36.0042841,-78.95063891,Durham,63,37063
45911,345063,Accordius Health At Wilson,110,60.1,1804 FOREST HILLS ROAD W,WILSON,27893,35.72239,-77.95128,Wilson,195,37195
45916,345066,Alston Brook,100,72.1,4748 OLD SALISBURY ROAD,LEXINGTON,27295,35.785924,-80.323593,Davidson,57,37057
45921,345070,Durham Nursing & Rehabilitation Center,126,85.3,411 S LASALLE STREET,DURHAM,27705,36.01341045,-78.9473003,Durham,63,37063
45926,345072,Carolina Rivers Nursing And Rehabilitation Center,120,57.4,1839 ONSLOW DRIVE EXTENSION,JACKSONVILLE,28540,34.74993216,-77.40854027,Onslow,133,37133
45931,345077,Sunnybrook Rehabilitation Center,95,62.9,25 SUNNYBROOK ROAD,RALEIGH,27610,35.786474,-78.585815,Wake,183,37183
45936,345078,Highland Farms,60,38.0,200 TABERNACLE ROAD,BLACK MOUNTAIN,28711,35.6102324,-82.3464353,Buncombe,21,37021
45941,345080,Brian Center Health & Rehab Hickory Viewmont,104,73.2,220 13TH AVENUE PLACE NW,HICKORY,28601,35.75062073,-81.34154851,Catawba,35,37035
45946,345081,Accordius Health At Rose Manor Llc,111,80.3,4230 NORTH ROXBORO STREET,DURHAM,27704,36.0502698,-78.9024999,Durham,63,37063
45951,345083,Accordius Health At Rutherford Llc,80,64.3,188 OSCAR JUSTICE ROAD,RUTHERFORDTON,28139,35.41096,-81.92518,Rutherford,161,37161
45956,345088,Trinity Glen,117,84.8,849 WATERWORKS ROAD,WINSTON-SALEM,27101,36.111442,-80.202502,Forsyth,67,37067
45961,345089,Walnut Cove Health And Rehabilitation Center,90,72.4,511 WINDMILL STREET,WALNUT COVE,27052,36.29927792,-80.14331037,Stokes,169,37169
45966,345090,Westchester Manor At Providence Place,129,84.8,1795 WESTCHESTER DRIVE,HIGH POINT,27262,35.94394757,-80.03385614,Guilford,81,37081
45971,345091,Edgewood Place At The Village At Brookwood,105,20.9,1820 BROOKWOOD AVENUE,BURLINGTON,27215,36.093385,-79.462537,Alamance,1,37001
45976,345092,The Citadel At Winston Salem,230,154.0,1900 W 1ST STREET,WINSTON-SALEM,27104,36.09627337,-80.27245205,Forsyth,67,37067
45981,345093,Maryfield Nursing Home,115,97.5,1315 GREENSBORO ROAD,HIGH POINT,27260,35.99015929,-79.95915929,Guilford,81,37081
45986,345095,Chatham Nursing & Rehabilitation,99,62.7,700 JOHNSTON RIDGE ROAD,ELKIN,28621,36.268602,-80.835403,Surry,171,37171
45991,345096,Huntersville Oaks,168,64.6,12019 VERHOEFF DRIVE,HUNTERSVILLE,28078,35.39365043,-80.84152655,Mecklenburg,119,37119
45996,345097,Jesse Helms Nursing Center,70,44.2,1411 DOVE STREET,MONROE,28111,34.97636677,-80.52120256,Union,179,37179
46001,345102,Maggie Valley Nursing And Rehabilitation,114,95.3,75 FISHER LOOP,MAGGIE VALLEY,28751,35.5167107,-83.09976901,Haywood,87,37087
46006,345103,Carrington Place,166,114.5,600 FULLWOOD LANE,MATTHEWS,28105,35.115807,-80.732293,Mecklenburg,119,37119
46011,345104,Zebulon Rehabilitation Center,60,49.9,509 WEST GANNON AVENUE,ZEBULON,27597,35.82023909,-78.32685212,Wake,183,37183
46016,345106,Trinity Ridge,120,97.6,2140 MEDICAL PARK DRIVE,HICKORY,28602,35.68883272,-81.35951819,Catawba,35,37035
46021,345109,Trinity Place,76,67.3,24724 SOUTH BUSINESS 52,ALBEMARLE,28001,35.332124,-80.183523,Stanly,167,37167
46026,345110,Autumn Care Of Waynesville,90,70.1,360 OLD BALSAM ROAD,WAYNESVILLE,28786,35.45966664,-83.0127855,Haywood,87,37087
46031,345111,Penick Village,50,30.1,401 EAST RHODE ISLAND AVENUE,SOUTHERN PINES,28387,35.173708,-79.381993,Moore,125,37125
46036,345113,Willow Creek Nursing And Rehabilitation Center,200,129.5,2401 WAYNE MEMORIAL DRIVE,GOLDSBORO,27534,35.39836996,-77.96116646,Wayne,191,37191
46041,345115,Accordius Health At Salisbury,185,115.4,635 STATESVILLE BOULEVARD,SALISBURY,28144,35.68908578,-80.49225323,Rowan,159,37159
46046,345116,"Carolina Pines At Greensboro, Llc",126,71.4,109 S HOLDEN RD,GREENSBORO,27407,36.0704148,-79.8480197,Guilford,81,37081
46051,345119,Northchase Nursing And Rehabilitation Center,140,117.1,3015 ENTERPRISE DRIVE,WILMINGTON,28405,34.306462,-77.87584,New Hanover,129,37129
46056,345123,Carolina Village Inc,58,39.7,600 CAROLINA VILLAGE ROAD SUITE Z,HENDERSONVILLE,28792,35.345211,-82.447385,Henderson,89,37089
46061,345124,Pruitthealth-Elkin,100,78.5,560 JOHNSON RIDGE ROAD,ELKIN,28621,36.263614,-80.832584,Surry,171,37171
46066,345126,Mount Olive Center,150,95.4,228 SMITH CHAPEL ROAD,MOUNT OLIVE,28365,35.19825,-78.076708,Wayne,191,37191
46071,345127,White Oak Manor - Tryon,70,48.3,70 OAK STREET,TRYON,28782,35.20977007,-82.23722032,Polk,149,37149
46076,345128,Accordius Health At Statesville,147,80.5,520 VALLEY STREET,STATESVILLE,28677,35.7975781,-80.8679833,Iredell,97,37097
46081,345129,Davie Nursing And Rehabilitation Center,96,81.3,498 MADISON ROAD,MOCKSVILLE,27028,35.91682,-80.59215,Davie,59,37059
46086,345130,Accordius Health At Concord,120,58.5,515 LAKE CONCORD ROAD NE,CONCORD,28025,35.44435818,-80.60030055,Cabarrus,25,37025
46091,345131,Accordius Health At Clemmons,94,78.5,3905 CLEMMONS ROAD,CLEMMONS,27012,36.018832,-80.3916275,Davidson,57,37057
46096,345132,Greenhaven Health And Rehabilitation Center,120,67.0,801 GREENHAVEN DRIVE,GREENSBORO,27406,36.02393866,-79.81370835,Guilford,81,37081
46101,345133,Accordius Health At Wilkesboro,120,74.5,1000 COLLEGE STREET,WILKESBORO,28697,36.141605,-81.165559,Wilkes,193,37193
46106,345134,Pelican Health Randolph Llc,100,62.4,4801 RANDOLPH ROAD,CHARLOTTE,28211,35.17068804,-80.7963067,Mecklenburg,119,37119
46111,345137,The Lodge At Rocky Mount Health And Rehabilitation,100,85.8,3322 VILLAGE ROAD,ROCKY MOUNT,27804,35.97722605,-77.87507865,Edgecombe,65,37065
46116,345138,Lenoir Healthcare Center,120,76.0,322 NUWAY CIRCLE,LENOIR,28645,35.9429713,-81.5371495,Caldwell,27,37027
46121,345140,Brightmoor Nursing Center,58,24.5,610 WEST FISHER STREET,SALISBURY,28145,35.67119016,-80.47633657,Rowan,159,37159
46126,345142,University Place Nursing And Rehabilitation Center,207,126.8,9200 GLENWATER DRIVE,CHARLOTTE,28262,35.31627415,-80.75018293,Mecklenburg,119,37119
46131,345143,Siler City Center,150,125.6,900 W DOLPHIN STREET,SILER CITY,27344,35.71758285,-79.47470867,Chatham,37,37037
46136,345144,Pine Ridge Health And Rehabilitation Center,140,90.8,706 PINEYWOOD ROAD,THOMASVILLE,27360,35.89249705,-80.10428165,Davidson,57,37057
46141,345145,The Carrolton Of Williamston,154,84.7,119 GATLING STREET,WILLIAMSTON,27892,36.00188,-76.95477,Martin,117,37117
46146,345146,Bethany Woods Nursing And Rehabilitation Center,180,96.2,33426 OLD SALISBURY ROAD BOX 1250,ALBEMARLE,28002,35.390788,-80.221142,Stanly,167,37167
46151,345148,Friends Homes At Guilford,40,38.1,925 NEW GARDEN ROAD,GREENSBORO,27410,36.092859,-79.890438,Guilford,81,37081
46156,345149,Accordius Health At Winston Salem,66,41.7,4911 BRIAN CENTER LANE,WINSTON-SALEM,27106,36.159812,-80.29457567,Forsyth,67,37067
46161,345150,Kenansville Health & Rehabilitation Center,92,50.0,209 BEASLEY STREET,KENANSVILLE,28349,34.96420432,-77.95775887,Duplin,61,37061
46166,345151,White Oak Manor - Kings Mountain,154,103.1,716 SIPES STREET,KINGS MOUNTAIN,28086,35.24285202,-81.35638487,Cleveland,45,37045
46171,345152,Trinity Village,82,70.6,1265 21 STREET NE,HICKORY,28601,35.7445,-81.298978,Catawba,35,37035
46176,345153,Trinity Oaks,115,87.5,820 KLUMAC ROAD,SALISBURY,28144,35.64562225,-80.48401588,Rowan,159,37159
46181,345155,Alpine Health And Rehabilitation Of Asheboro,238,116.5,230 EAST PRESNELL STREET,ASHEBORO,27203,35.71449745,-79.808273,Randolph,151,37151
46186,345156,Harmony Hall Nursing And Rehabilitation Center,175,96.2,312 WARREN AVENUE,KINSTON,28502,35.27225392,-77.58438175,Lenoir,107,37107
46191,345159,Lincolnton Rehabilitation Center,120,76.4,1410 EAST GASTON STREET,LINCOLNTON,28092,35.47296545,-81.2353443,Lincoln,109,37109
46196,345160,Davis Health Care Center,104,92.3,1011 PORTERS NECK ROAD,WILMINGTON,28411,34.294494,-77.771428,New Hanover,129,37129
46201,345161,Abernethy Laurels,174,127.1,102 LEONARD AVENUE,NEWTON,28658,35.6424554,-81.18483487,Catawba,35,37035
46206,345162,Accordius Health At Gastonia,118,62.5,416 N HIGHLAND STREET,GASTONIA,28052,35.26919803,-81.19395709,Gaston,71,37071
46211,345163,Glenbridge Health And Rehabiltation Center,134,58.6,211 MILTON BROWN HEIRS ROAD,BOONE,28607,36.18735192,-81.63267832,Watauga,189,37189
46216,345164,Chowan River Nursing And Rehabilitation Center,130,72.2,1341 PARADISE ROAD,EDENTON,27932,36.078502,-76.599257,Chowan,41,37041
46221,345165,Autumn Care Of Marion,110,80.9,1264 AIRPORT ROAD,MARION,28752,35.701914,-82.019411,McDowell,111,37111
46226,345166,Stokes County Nursing Home,40,37.3,1570 NC 8 AND 89 HIGHWAY,DANBURY,27016,36.40782,-80.20184,Stokes,169,37169
46231,345167,Yadkin Nursing Care Center,147,86.5,903 W MAIN STREET,YADKINVILLE,27055,36.1345338,-80.6609762,Yadkin,197,37197
46236,345168,Macgregor Downs Health And Rehabilitation,152,107.2,2910 MACGREGOR DOWNS ROAD,GREENVILLE,27834,35.6115418,-77.4104308,Pitt,147,37147
46241,345169,Brian Center Health & Rehab/Gastonia,162,115.4,969 COX ROAD,GASTONIA,28054,35.2626058,-81.1336012,Gaston,71,37071
46246,345170,Crystal Bluffs Rehabilitation And Health Care Cent,92,79.1,4010 BRIDGES STREET EXTENSION,MOREHEAD CITY,28557,34.73616,-76.7883,Carteret,31,37031
46251,345171,White Oak Manor - Shelby,160,80.5,401 N MORGAN STREET,SHELBY,28150,35.296344,-81.541808,Cleveland,45,37045
46256,345172,Meridian Center,199,151.0,707 NORTH ELM STREET,HIGH POINT,27262,35.964267,-80.01318152,Guilford,81,37081
46261,345173,Emerald Health & Rehab Center,96,60.2,54 RED MULBERRY WAY,LILLINGTON,27546,35.425959,-78.811634,Harnett,85,37085
46266,345174,Carolina Pines At Asheville,120,78.8,91 VICTORIA ROAD,ASHEVILLE,28801,35.576717,-82.551956,Buncombe,21,37021
46271,345175,Smithfield Manor Nursing And Rehab,138,103.3,902 BERKSHIRE ROAD,SMITHFIELD,27577,35.5179283,-78.3261249,Johnston,101,37101
46276,345177,The Greens At Pinehurst Rehab & Living Center,120,84.2,205 RATTLESNAKE TRAIL,PINEHURST,28374,35.20583596,-79.46539267,Moore,125,37125
46281,345179,Accordius Health At Mooresville,131,49.6,752 E CENTER AVENUE,MOORESVILLE,28115,35.578684,-80.7981104,Iredell,97,37097
46286,345180,Wesley Pines Retirement Comm,62,48.7,1000 WESLEY PINES ROAD,LUMBERTON,28358,34.6567327,-78.9972871,Robeson,155,37155
46291,345181,Universal Health Care / Greenville,120,96.6,2578 WEST FIFTH STREET,GREENVILLE,27834,35.6178,-77.41084,Pitt,147,37147
46296,345182,Pruitthealth-Sealevel,104,64.1,468 HIGHWAY 70 EAST,SEALEVEL,28577,35.387362,-78.455056,Carteret,31,37031
46301,345183,Universal Health Care & Rehab,120,85.6,430 BROOKWOOD AVENUE NE,CONCORD,28025,35.43096423,-80.58036304,Cabarrus,25,37025
46306,345184,Citadel Elizabeth City Llc,108,56.4,901 SOUTH HALSTEAD BOULEVARD,ELIZABETH CITY,27909,36.286357,-76.240064,Pasquotank,139,37139
46311,345185,Premier Living And Rehab Center,127,62.2,106 CAMERON STREET,LAKE WACCAMAW,28450,34.31931259,-78.5192222,Columbus,47,37047
46316,345186,Five Oaks Manor,160,111.2,413 WINECOFF SCHOOL ROAD,CONCORD,28027,35.44664353,-80.62063224,Cabarrus,25,37025
46321,345187,Grace Heights Health & Rehabilitation,120,97.4,109 FOOTHILLS DRIVE,MORGANTON,28655,35.7267892,-81.65115133,Burke,23,37023
46326,345190,Murphy Rehabilitation & Nursing,134,89.0,230 NC HWY 141,MURPHY,28906,35.042993,-83.781043,Cherokee,39,37039
46331,345191,Surry Community Health And Rehab Center,120,82.6,542 ALLRED MILL ROAD,MOUNT AIRY,27030,36.52322489,-80.61765012,Surry,171,37171
46336,345192,Longleaf Neuro-Medical Treatment Center,248,124.2,4761 WARD BOULEVARD,WILSON,27893,35.72532271,-77.89579739,Wilson,195,37195
46341,345193,Mountain View Manor Nursing Ce,120,60.6,410 BUCKNER BRANCH ROAD,BRYSON CITY,28713,35.42519684,-83.48180593,Swain,173,37173
46346,345194,Glenflora,52,32.7,5701 FAYETTEVILLE ROAD,LUMBERTON,28360,34.680656,-79.013643,Robeson,155,37155
46351,345195,Edgecombe Health And Rehab Center,159,95.2,1000 WESTERN BOULEVARD,TARBORO,27886,35.896842,-77.557436,Edgecombe,65,37065
46356,345196,Mountain Vista Health Park,60,52.5,106 MOUNTAIN VISTA HEALTH PARK ROAD,DENTON,27239,35.624975,-80.119187,Davidson,57,37057
46361,345197,Willow Ridge Of Nc,136,89.9,237 TRYON ROAD,RUTHERFORDTON,28139,35.36382949,-81.96989562,Rutherford,161,37161
46366,345198,Aston Park Health Care Center,120,81.8,380 BREVARD ROAD,ASHEVILLE,28806,35.562613,-82.595038,Buncombe,21,37021
46371,345199,Carol Woods,30,17.2,750 WEAVER DAIRY ROAD,CHAPEL HILL,27514,35.9645116,-79.035976,Orange,135,37135
46376,345201,Pelican Health At Charlotte,120,81.3,2616 EAST 5TH STREET,CHARLOTTE,28204,35.2057032,-80.81183716,Mecklenburg,119,37119
46381,345202,Capital Nursing And Rehabilitation Center,125,76.8,3000 HOLSTON LANE,RALEIGH,27610,35.78573831,-78.58220159,Wake,183,37183
46386,345203,Life Care Center Of Banner Elk,118,65.7,185 NORWOOD HOLLOW ROAD,BANNER ELK,28604,36.135286,-81.848959,Avery,11,37011
46391,345204,Stonecreek Health And Rehabilitation,120,91.8,455 VICTORIA ROAD,ASHEVILLE,28801,35.56619434,-82.5564293,Buncombe,21,37021
46396,345205,Westwood Hills Nursing And Rehabilitation Center,176,105.6,1016 FLETCHER STREET,WILKESBORO,28697,36.1327969,-81.16743842,Wilkes,193,37193
46401,345206,Madison Health And Rehabilitation,100,83.4,345 MANOR ROAD,MARS HILL,28754,35.83268377,-82.5290775,Madison,115,37115
46406,345207,Liberty Commons N&R Ctr Of Columbus Cty,107,66.5,1402 PINCKNEY STREET,WHITEVILLE,28472,34.34632523,-78.70209813,Columbus,47,37047
46411,345208,Accordius Health At Brevard,147,61.0,115 N COUNTRY CLUB ROAD,BREVARD,28712,35.22473158,-82.73755201,Transylvania,175,37175
46416,345209,Brookridge Retirement Community,38,31.5,1199 HAYES FOREST DRIVE,WINSTON-SALEM,27106,36.146125,-80.28616,Forsyth,67,37067
46421,345210,Elizabethtown Healthcare & Rehab Center,94,64.3,208 MERCER MILL ROAD,ELIZABETHTOWN,28337,34.6185828,-78.6037621,Bladen,17,37017
46426,345211,Riverpoint Crest Nursing And Rehabilitation Center,105,87.6,2600 OLD CHERRY POINT ROAD,NEW BERN,28563,35.066296,-77.014073,Craven,49,37049
46431,345212,Bethesda Health Care Facility,85,52.5,3532 DUNN ROAD,EASTOVER,28301,35.09207048,-78.78701992,Cumberland,51,37051
46436,345213,Universal Health Care Lillington,129,118.2,1995 EAST CORNELIUS HARNETT BOULEVARD,LILLINGTON,27546,35.40807785,-78.76973155,Harnett,85,37085
46441,345215,River Trace Nursing And Rehabilitation Center,140,90.4,250 LOVERS LANE,WASHINGTON,27889,35.5503018,-77.0358213,Beaufort,13,37013
46446,345216,Westfield Rehabilitation And Health Center,83,51.0,3100 TRAMWAY ROAD,SANFORD,27330,35.438063,-79.207283,Lee,105,37105
46451,345217,Premier Nursing And Rehabilitation Center,239,116.3,225 WHITE STREET,JACKSONVILLE,28546,34.760082,-77.387869,Onslow,133,37133
46456,345218,Mary Gran Nursing Center,212,85.2,120 SOUTHWOOD DRIVE,CLINTON,28329,34.98120827,-78.30787397,Sampson,163,37163
46461,345219,Magnolia Lane Nursing And Rehabilitation Center,121,44.9,107 MAGNOLIA DRIVE,MORGANTON,28655,35.7256123,-81.69369133,Burke,23,37023
46466,345221,Brian Center Health & Rehabilitation Weaverville,122,92.1,78 WEAVER BOULEVARD,WEAVERVILLE,28787,35.7044344,-82.571772,Buncombe,21,37021
46471,345222,Autumn Care Of Drexel,100,74.8,307 OAKLAND AVENUE,MORGANTON,28655,35.760348,-81.600164,Burke,23,37023
46476,345223,Blue Ridge Health And Rehabilitation Center,150,72.5,1510 HEBRON STREET,HENDERSONVILLE,28739,35.305894,-82.469428,Henderson,89,37089
46481,345225,Signature Healthcare Of Chapel Hill,108,74.8,1602 E FRANKLIN STREET,CHAPEL HILL,27514,35.9336699,-79.0295054,Orange,135,37135
46486,345226,Peak Resources-Outer Banks,126,75.7,430  WEST HEALTH CENTER DRIVE,NAGS HEAD,27959,35.978284,-75.648852,Dare,55,37055
46491,345227,Pelican Health Reidsville,110,82.1,543 MAPLE AVENUE,REIDSVILLE,27320,36.35162288,-79.66896519,Rockingham,157,37157
46496,345228,Ridgewood Living & Rehab Center,128,91.8,1624 HIGHLAND DRIVE,WASHINGTON,27889,35.55471049,-77.02281658,Beaufort,13,37013
46501,345229,Peak Resources - Shelby,100,71.6,1101 NORTH MORGAN STREET,SHELBY,28150,35.305104,-81.541223,Cleveland,45,37045
46506,345232,Brian Center Health & Rehab Hickory,150,105.6,3031 TATE BOULEVARD SE,HICKORY,28602,35.7284612,-81.3057603,Catawba,35,37035
46511,345233,Deer Park Health & Rehabilitation,140,84.4,306 DEER PARK ROAD,NEBO,28761,35.652963,-81.884969,McDowell,111,37111
46516,345234,Lumberton Health And Rehab Center,122,94.3,1555 WILLIS AVENUE,LUMBERTON,28358,34.62826449,-78.99214156,Robeson,155,37155
46521,345235,Twin Lakes Community,100,68.9,3801 WADE COBLE DRIVE,BURLINGTON,27215,36.08291,-79.521945,Alamance,1,37001
46526,345236,Accordius Health At Wilmington,120,75.4,820 WELLINGTON AVENUE,WILMINGTON,28401,34.19515027,-77.93190106,New Hanover,129,37129
46531,345237,Barbour Court Nursing And Rehabilitation Center,165,135.2,515 BARBOUR ROAD,SMITHFIELD,27577,35.54202856,-78.36047808,Johnston,101,37101
46536,345238,White Oak Manor - Charlotte,180,104.4,4009 CRAIG AVENUE,CHARLOTTE,28211,35.18590196,-80.78315043,Mecklenburg,119,37119
46541,345240,Warren Hills Nursing Center,140,81.0,864 US HWY 158 BUSINESS WEST,WARRENTON,27589,36.417981,-78.170606,Warren,185,37185
46546,345241,Brian Center Health & Rehab/Eden,112,98.0,226 N OAKLAND AVENUE,EDEN,27288,36.507551,-79.7788377,Rockingham,157,37157
46551,345242,The Fountains At The Albemarle,40,24.1,200 TRADE STREET,TARBORO,27886,35.89558,-77.535096,Edgecombe,65,37065
46556,345243,Accordius Health At Charlotte,116,82.8,5939 REDDMAN ROAD,CHARLOTTE,28212,35.20108621,-80.75084357,Mecklenburg,119,37119
46561,345244,Harborview Health Care Center,122,,812 SHEPARD STREET,MOREHEAD CITY,28557,34.7200082,-76.71348321,Carteret,31,37031
46566,345245,Pender Memorial Hosp Snf,43,30.2,507 E FREMONT STREET,BURGAW,28425,34.55067,-77.91992,Pender,141,37141
46571,345246,Hickory Falls Health And Rehabilitation,120,109.0,100 SUNSET STREET,GRANITE FALLS,28630,35.80057,-81.449604,Caldwell,27,37027
46576,345247,Valley Nursing Center,183,60.4,581 NC HIGHWAY 16 SOUTH,TAYLORSVILLE,28681,35.917803,-81.177955,Alexander,3,37003
46581,345249,Unc Rockingham Rehab & Nursing Care Center,121,67.5,205 EAST KINGS HIGHWAY,EDEN,27288,36.49352795,-79.73878675,Rockingham,157,37157
46586,345250,Brian Center Health & Retirement/Lincolnton,117,85.2,515 S GENERALS BOULEVARD,LINCOLNTON,28093,35.45584471,-81.24267214,Lincoln,109,37109
46591,345252,Warsaw Nursing And Rehabilitation Center,100,64.8,214 LANEFIELD ROAD,WARSAW,28398,34.99231438,-78.07510744,Duplin,61,37061
46596,345253,The Lodge At Mills River,50,38.8,5593 OLD HAYWOOD ROAD,MILLS RIVER,28759,35.42614184,-82.57439296,Henderson,89,37089
46601,345254,Monroe Rehabilitation Center,147,100.7,1212 SUNSET DRIVE EAST,MONROE,28112,34.968994,-80.528967,Union,179,37179
46606,345255,Carolina Care Health And Rehabilitation,107,83.1,111 HARRILSON STREET,CHERRYVILLE,28021,35.392568,-81.394004,Gaston,71,37071
46611,345258,Transitional Health Services Of Kannapolis,107,63.9,1810 CONCORD LAKE ROAD,KANNAPOLIS,28083,35.458369,-80.60112,Cabarrus,25,37025
46616,345260,Rocky Mount Rehabilitation Center,117,75.6,160 S WINSTEAD AVENUE,ROCKY MOUNT,27804,35.96247683,-77.84910243,Nash,127,37127
46621,345261,Alleghany Center,90,66.6,179 COMBS STREET,SPARTA,28675,36.5055926,-81.12547571,Alleghany,5,37005
46626,345262,Brian Center Health & Rehab/Hertford,78,48.1,1300 DON JUAN ROAD,HERTFORD,27944,36.20213436,-76.49308835,Perquimans,143,37143
46631,345263,Macon Valley Nursing And Rehabilitation Center,200,59.1,3195 OLD MURPHY ROAD,FRANKLIN,28734,35.1736017,-83.4007679,Macon,113,37113
46636,345264,Stanley Total Living Center,106,59.3,514 OLD MOUNT HOLLY ROAD,STANLEY,28164,35.3549866,-81.0845482,Gaston,71,37071
46641,345265,Brian Center Health & Rehab/Yanceyville,157,112.1,1086 MAIN STREET NORTH,YANCEYVILLE,27379,36.41379,-79.34744,Caswell,33,37033
46646,345266,The Carrolton Of Plymouth,114,79.7,1084 US 64 EAST,PLYMOUTH,27962,35.86388,-76.72711,Washington,187,37187
46651,345267,"Bladen East Health And Rehab, Llc",90,60.0,804 S POPLAR STREET,ELIZABETHTOWN,28337,34.62026762,-78.61107943,Bladen,17,37017
46656,345268,Autumn Care Of Marshville,110,80.2,311 W PHIFER STREET,MARSHVILLE,28103,34.98875895,-80.37167095,Union,179,37179
46661,345269,Autumn Care Of Salisbury,97,82.8,1505 BRINGLE FERRY ROAD,SALISBURY,28146,35.66277982,-80.44635469,Rowan,159,37159
46666,345270,Brian Center Health & Rehabilitation/Spruce Pines,127,68.3,218 LAUREL CREEK COURT,SPRUCE PINE,28777,35.90679549,-82.08825511,Mitchell,121,37121
46671,345273,Kindred Hospital East Greensboro,23,18.4,2401 SOUTH SIDE BOULEVARD,GREENSBORO,27406,36.04868395,-79.77108654,Guilford,81,37081
46676,345277,Woodland Hill Center,100,65.5,400 VISION DRIVE,ASHEBORO,27203,35.73464471,-79.81858682,Randolph,151,37151
46681,345278,Northern Regional Hospital,33,30.0,830 ROCKFORD STREET,MOUNT AIRY,27030,36.48911485,-80.61229628,Surry,171,37171
46686,345279,The Carrolton Of Nash,141,95.2,7369 HUNTER HILL ROAD,ROCKY MOUNT,27804,35.98665926,-77.84634984,Nash,127,37127
46691,345280,Autumn Care Of Raeford,132,100.7,1206 N FULTON STREET,RAEFORD,28376,34.99202462,-79.22837909,Hoke,93,37093
46696,345281,Stanly Manor,90,48.0,625 BETHANY CHURCH ROAD,ALBEMARLE,28001,35.39707172,-80.21351045,Stanly,167,37167
46701,345282,Cleveland Pines,120,82.5,1404 N LAFAYETTE STREET,SHELBY,28150,35.32028593,-81.53824086,Cleveland,45,37045
46706,345283,The Citadel Mooresville,130,89.4,550 GLENWOOD DRIVE,MOORESVILLE,28115,35.5697628,-80.8084274,Iredell,97,37097
46711,345284,The Oaks,131,91.1,901 BETHESDA ROAD,WINSTON SALEM,27103,36.077565,-80.294,Forsyth,67,37067
46716,345285,Accordius Health At Hendersonville Llc,134,78.6,200 HERITAGE CIRCLE,HENDERSONVILLE,28791,35.3662,-82.49058,Henderson,89,37089
46721,345286,The Citadel Salisbury,160,71.1,710 JULIAN ROAD,SALISBURY,28147,35.64265863,-80.49370721,Rowan,159,37159
46726,345288,"Compass Healthcare And Rehab Rowan, Llc",70,57.7,1404 S SALISBURY AVENUE,SPENCER,28159,35.68236421,-80.44501006,Rowan,159,37159
46731,345289,Currituck Health & Rehab Center,100,51.1,3907 CARATOKE HIGHWAY,BARCO,27917,36.38942243,-75.97856017,Currituck,53,37053
46736,345291,Universal Health Care / Oxford,160,110.4,500 PROSPECT AVENUE,OXFORD,27565,36.327222,-78.598413,Granville,77,37077
46741,345292,Grantsbrook Nursing And Rehabilitation Center,96,71.5,290 KEEL ROAD,GRANTSBORO,28529,35.140174,-76.823506,Pamlico,137,37137
46746,345293,Richmond Pines Healthcare And Rehabilitation Cente,105,77.5,HIGHWAY 177 S BOX 1489,HAMLET,28345,34.85166,-79.74905,Richmond,153,37153
46751,345294,Autumn Care Of Shallotte,100,79.8,237 MULBERRY STREET,SHALLOTTE,28459,33.97699342,-78.38851875,Brunswick,19,37019
46756,345296,Margate Health And Rehab Center,210,91.1,540 WAUGH STREET,JEFFERSON,28640,36.42393081,-81.45615566,Ashe,9,37009
46761,345297,Scotia Village-Snf,58,33.4,2200 ELM DRIVE,LAURINBURG,28352,34.73425,-79.48787,Scotland,165,37165
46766,345298,The Laurels Of Pender,98,71.9,311 S CAMPBELL STREET,BURGAW,28425,34.549267,-77.920488,Pender,141,37141
46771,345301,White Oak Manor - Burlington,160,76.9,323 BALDWIN ROAD,BURLINGTON,27217,36.10094,-79.419614,Alamance,1,37001
46776,345302,Vero Health & Rehab Of Sylva,106,75.3,417 CLOVERDALE ROAD,SYLVA,28779,35.3347256,-83.22701072,Jackson,99,37099
46781,345303,The Laurels Of Greentree Ridge,98,78.6,70 SWEETEN CREEK ROAD,ASHEVILLE,28803,35.5635366,-82.53158816,Buncombe,21,37021
46786,345304,"Accordius Health At Midwood, Llc",100,54.8,2727 SHAMROCK DRIVE,CHARLOTTE,28205,35.23819829,-80.78046588,Mecklenburg,119,37119
46791,345305,Smoky Ridge Health & Rehabilitation,140,67.9,310 PENSACOLA ROAD,BURNSVILLE,28714,35.90939793,-82.29235571,Yancey,199,37199
46796,345306,Iredell Memorial Hospital Inc,48,34.9,557 BROOKDALE DRIVE,STATESVILLE,28677,35.80037305,-80.87873772,Iredell,97,37097
46801,345307,The Ivy At Gastonia Llc,50,30.1,4414 WILKINSON BLVD,GASTONIA,28056,35.25523,-81.10281,Gaston,71,37071
46806,345309,Liberty Commons Nsg And Rehab Ctr Of Halifax Cty,50,28.8,101 CAROLINE AVENUE,WELDON,27890,36.416704,-77.608658,Halifax,83,37083
46811,345310,Piedmont Crossing,114,71.5,100 HEDRICK DRIVE,THOMASVILLE,27360,35.84301656,-80.10619395,Davidson,57,37057
46816,345311,Roxboro Healthcare & Rehab Center,140,70.8,901 RIDGE ROAD,ROXBORO,27573,36.410124,-78.98343,Person,145,37145
46821,345312,Brian Center Health & Rehab/Hendersonville,120,70.5,1870 PISGAH DRIVE,HENDERSONVILLE,28791,35.32478,-82.49389,Henderson,89,37089
46826,345313,Northampton Nursing And Rehabilitation Center,80,54.2,HWY 305 NORTH,JACKSON,27845,36.409792,-77.432332,Northampton,131,37131
46831,345314,"Fair Haven Of Forest City, Llc",100,70.0,830 BETHANY CHURCH ROAD,FOREST CITY,28043,35.3164143,-81.8824191,Rutherford,161,37161
46836,345315,The Carrolton Of Lumberton,90,,1170 LINKHAW ROAD,LUMBERTON,28358,34.64408792,-78.990976,Robeson,155,37155
46841,345316,Senior Citizens Home,60,42.7,2275 RUIN CREEK ROAD,HENDERSON,27537,36.307559,-78.456314,Vance,181,37181
46846,345317,Brian Center Health & Retirement Clayton,90,70.4,204 DAIRY ROAD,CLAYTON,27520,35.6360428,-78.4711998,Johnston,101,37101
46851,345318,Brunswick Cove Nursing Center,175,96.0,1478 RIVER ROAD,WINNABOW,28479,34.185683,-77.987621,Brunswick,19,37019
46856,345319,Elderberry Health Care,80,70.5,415 ELDERBERRY LANE,MARSHALL,28753,35.798378,-82.653655,Madison,115,37115
46861,345321,Kerr Lake Nursing And Rehabilitation Center,92,65.0,1245 PARK AVENUE,HENDERSON,27536,36.32296839,-78.41705362,Vance,181,37181
46866,345322,The Laurels Of Hendersonville,100,71.8,290 CLEAR CREEK ROAD,HENDERSONVILLE,28792,35.34299825,-82.45666777,Henderson,89,37089
46871,345323,Brian Center Health & Rehabilitation Wallace,80,56.4,647 S RAILROAD STREET BOX 966,WALLACE,28466,34.72699,-77.99209,Duplin,61,37061
46876,345325,The Carrolton Of Dunn,100,63.1,711 SUSAN TART ROAD,DUNN,28335,35.30433314,-78.62861161,Harnett,85,37085
46881,345326,Willowbrooke Court Sc Ctr At Matthews Glen,16,8.6,740 PAVILION VIEW DRIVE,MATTHEWS,28105,35.11198,-80.72757,Mecklenburg,119,37119
46886,345328,Givens Health Center,70,40.5,600 BARRETT LANE,ASHEVILLE,28803,35.50518,-82.509749,Buncombe,21,37021
46891,345329,Gateway Rehabilitation And Healthcare,100,76.2,2030 HARPER AVENUE NW,LENOIR,28645,35.90128595,-81.56393785,Caldwell,27,37027
46896,345330,The Graybrier Nurs & Retirement Ct,128,69.5,116 LANE DRIVE,TRINITY,27370,35.88242,-79.9447,Randolph,151,37151
46901,345331,Sardis Oaks,124,61.5,5151 SARDIS ROAD,CHARLOTTE,28270,35.15785689,-80.79122013,Mecklenburg,119,37119
46906,345332,Brian Center Health And Rehabilitation/Wilson,81,70.3,2501 DOWNING STREET SW,WILSON,27895,35.710094,-77.942857,Wilson,195,37195
46911,345333,Abbotts Creek Center,64,58.7,877 HILL EVERHART ROAD,LEXINGTON,27295,35.851225,-80.228034,Davidson,57,37057
46916,345335,Franklin Oaks Nursing And Rehabilitation Center,166,115.9,1704 NC HIGHWAY 39 N,LOUISBURG,27549,36.107304,-78.556701,Franklin,69,37069
46921,345336,Signature Healthcare Of Roanoke Rapids,108,80.4,305 FOURTEENTH STREET,ROANOKE RAPIDS,27870,36.687395,-77.545589,Halifax,83,37083
46926,345337,"Peak Resources - Alamance, Inc",142,94.9,215 COLLEGE STREET,GRAHAM,27253,36.07631109,-79.40345974,Alamance,1,37001
46931,345339,Brian Center Health & Rehabilitation/Windsor,72,44.9,1306 SOUTH KING STREET,WINDSOR,27983,35.98942063,-76.93060088,Bertie,15,37015
46936,345340,Maple Leaf Health Care,94,76.9,1101 MAPLE CARE LANE,STATESVILLE,28625,35.809258,-80.843342,Iredell,97,37097
46941,345341,Silver Bluff Inc,131,86.5,100 SILVER BLUFF DRIVE,CANTON,28716,35.48235,-82.8786,Haywood,87,37087
46946,345342,Big Elm Retirement And Nursing Centers,50,36.4,1285 WEST A STREET,KANNAPOLIS,28081,35.513039,-80.632302,Rowan,159,37159
46951,345343,Brian Center Health And Rehabilitation/Goldsboro,130,91.5,1700 WAYNE MEMORIAL DRIVE,GOLDSBORO,27534,35.39389,-77.972654,Wayne,191,37191
46956,345344,Pelican Health Henderson Llc,78,47.3,280 SOUTH  BECKFORD DRIVE,HENDERSON,27536,36.33735383,-78.41654777,Vance,181,37181
46961,345345,Accordius Health At Monroe,60,43.2,204 OLD HIGHWAY 74 EAST,MONROE,28112,34.97577,-80.49564,Union,179,37179
46966,345348,Whispering Pines Nursing & Rehab Center,86,58.9,523 COUNTRY CLUB DRIVE,FAYETTEVILLE,28301,35.10415339,-78.88724061,Cumberland,51,37051
46971,345349,Woodbury Wellness Center Inc,112,99.2,2778 COUNTRY CLUB DRIVE,HAMPSTEAD,28443,34.396668,-77.644578,Pender,141,37141
46976,345350,Courtland Terrace,77,60.2,2300 ABERDEEN BOULEVARD,GASTONIA,28054,35.268671,-81.13759,Gaston,71,37071
46981,345351,Autumn Care Of Saluda,99,66.1,501 ESSEOLA CIRCLE,SALUDA,28773,35.2440748,-82.34772717,Polk,149,37149
46986,345353,Highland House Rehabilitation And Healthcare,106,84.3,1700 PAMALEE DRIVE,FAYETTEVILLE,28301,35.0902548,-78.92126475,Cumberland,51,37051
46991,345354,Piney Grove Nursing And Rehabilitation Center,92,56.2,728 PINEY GROVE ROAD,KERNERSVILLE,27284,36.1376747,-80.06969152,Forsyth,67,37067
46996,345355,Graham Healthcare And Rehabilitation Center,80,45.7,811 SNOWBIRD ROAD,ROBBINSVILLE,28771,35.315444,-83.813919,Graham,75,37075
47001,345356,Rich  Square Nursing & Rehab,69,57.9,300 NORTH MAIN STREET,RICH SQUARE,27869,36.277574,-77.28099,Northampton,131,37131
47006,345357,Pruitthealth-Neuse,110,72.2,1303 HEALTH DRIVE,NEW BERN,28560,35.11398256,-77.06886986,Craven,49,37049
47011,345358,Louisburg Healthcare & Rehabilitation Center,92,55.6,202 SMOKETREE WAY,LOUISBURG,27549,36.114432,-78.299189,Franklin,69,37069
47016,345359,Accordius Health At Creekside Care,151,96.0,604 STOKES STREET EAST,AHOSKIE,27910,36.27768146,-76.98442156,Hertford,91,37091
47021,345362,Brian Center Health & Retirement/Cabarrus,90,77.4,250 BISHOP LANE,CONCORD,28025,35.45321528,-80.60423265,Cabarrus,25,37025
47026,345363,"Compass Healthcare And Rehab Hawfields, Inc",117,74.5,2502 S NC 119,MEBANE,27302,36.04753,-79.31265,Alamance,1,37001
47031,345365,Signature Healthcare Of Kinston,106,86.5,907 CUNNINGHAM ROAD,KINSTON,28501,35.29371557,-77.56466729,Lenoir,107,37107
47036,345366,Greendale Forest Nursing And Rehabilitation Center,115,78.9,1304 SE SECOND STREET,SNOW HILL,28580,35.433854,-77.66008,Greene,79,37079
47041,345367,Golden Years Nursing Home,58,43.3,7348 NORTH WEST STREET,FALCON,28342,35.196025,-78.651659,Cumberland,51,37051
47046,345369,Rex Rehab & Nsg Care Center,120,86.8,4210 LAKE BOONE TRAIL,RALEIGH,27607,35.815532,-78.70016,Wake,183,37183
47051,345370,Pinehurst Healthcare & Rehabilitation Center,144,93.1,300 BLAKE BOULEVARD,PINEHURST,28374,35.17074285,-79.46484851,Moore,125,37125
47056,345371,Pruitthealth-Trent,116,96.2,836 HOSPITAL DRIVE,NEW BERN,28560,35.11255466,-77.06548781,Craven,49,37049
47061,345372,Wilson Pines Nursing And Rehabilitation Center,95,81.2,403 CRESTVIEW AVENUE,WILSON,27893,35.71521795,-77.94262813,Wilson,195,37195
47066,345373,Liberty Commons Nrsg & Rehab Cntr Of Southport Llc,99,52.4,630 FODALE AVENUE,SOUTHPORT,28461,33.930724,-78.020299,Brunswick,19,37019
47071,345375,Accordius Health At Scotland Manor,62,41.8,920 JR HIGH SCHOOL ROAD,SCOTLAND NECK,27874,36.12703385,-77.42617104,Halifax,83,37083
47076,345376,The Carrolton Of Fayetteville,120,,2461 LEGION ROAD,FAYETTEVILLE,28306,35.01256,-78.90716,Cumberland,51,37051
47081,345377,East Carolina Rehab And Wellness,130,66.3,2575 W 5TH STREET,GREENVILLE,27834,35.6129875,-77.3972948,Pitt,147,37147
47086,345378,Pruitthealth-Rockingham,120,75.8,804 SOUTH LONG DRIVE,ROCKINGHAM,28379,34.9310398,-79.75125167,Richmond,153,37153
47091,345380,Village Green Health And Rehabilitation,170,95.0,1601 PURDUE DRIVE,FAYETTEVILLE,28304,35.041627,-78.923607,Cumberland,51,37051
47096,345381,Village Care Of King,96,80.2,440 INGRAM ROAD,KING,27021,36.26821,-80.370733,Stokes,169,37169
47101,345383,Scottish Pines Rehabilitation And Nursing Center,149,89.6,620 JOHNS ROAD,LAURINBURG,28352,34.760509,-79.466435,Scotland,165,37165
47106,345384,Pruittheath-Farmville,56,47.9,4351 SOUTH MAIN STREET,FARMVILLE,27828,35.57840412,-77.59347803,Pitt,147,37147
47111,345385,Cardinal Healthcare And Rehab,63,45.5,931 N ASPEN STREET,LINCOLNTON,28092,35.48181215,-81.26203128,Lincoln,109,37109
47116,345386,Wilkes Regional Medical Ctr Sn,10,8.0,1370 WEST D STREET,NORTH WILKESBORO,28659,36.160051,-81.15823652,Wilkes,193,37193
47121,345388,Hunter Woods Nursing And Rehab,120,75.1,620 TOM HUNTER ROAD,CHARLOTTE,28213,35.27896026,-80.77504337,Mecklenburg,119,37119
47126,345389,The Laurels Of Forest Glenn,120,104.3,1101 HARTWELL STREET,GARNER,27529,35.706302,-78.625035,Wake,183,37183
47131,345390,Countryside,60,52.5,7700 US 158 EAST,STOKESDALE,27357,36.23777,-79.95982,Guilford,81,37081
47136,345391,Heartland Living & Rehab At The Moses H Cone Mem H,107,77.6,1131 NORTH CHURCH STREET,GREENSBORO,27401,36.09153724,-79.78389604,Guilford,81,37081
47141,345392,Wadesboro Health & Rehab Center,66,55.5,2051 COUNTRY CLUB ROAD,WADESBORO,28170,34.94385016,-80.05192544,Anson,7,37007
47146,345393,Pisgah Manor Health Care Center,118,79.4,104 HOLCOMBE COVE ROAD,CANDLER,28715,35.571554,-82.672026,Buncombe,21,37021
47151,345394,Brook Stone Living Center,80,38.5,8990 HIGHWAY 17 SOUTH,POLLOCKSVILLE,28573,35.00077771,-77.2239228,Jones,103,37103
47156,345395,Peak Resources-Cherryville,54,55.8,7615 DALLAS CHERRYVILLE HIGHWAY,CHERRYVILLE,28021,35.38631235,-81.35007801,Gaston,71,37071
47161,345396,Smoky Mountain Health And Rehabilitation Center,50,31.8,1349 CRABTREE ROAD,WAYNESVILLE,28785,35.541614,-82.956419,Haywood,87,37087
47166,345397,Shoreland Hlth Care & Retireme,89,46.7,200 FLOWER-PRIDGEN DRIVE,WHITEVILLE,28472,34.3878,-78.72367,Columbus,47,37047
47171,345400,Skyland Care Center,94,73.4,193 ASHEVILLE HIGHWAY,SYLVA,28779,35.37669125,-83.21284374,Jackson,99,37099
47176,345401,Wilkesboro Health And Rehabilitation,111,105.3,204 OLD BRICKYARD ROAD,NORTH WILKESBORO,28659,36.155716,-81.173104,Wilkes,193,37193
47181,345403,Cary Health And Rehabilitation,120,87.4,6590 TRYON ROAD,CARY,27518,35.742272,-78.767986,Wake,183,37183
47186,345404,Three Rivers Health And Rehab,60,38.1,1403 CONNER DRIVE,WINDSOR,27983,35.987113,-76.9286,Bertie,15,37015
47191,345405,Charlotte Health & Rehabilitation Center,90,80.5,1735 TODDVILLE ROAD,CHARLOTTE,28214,35.26157217,-80.9232708,Mecklenburg,119,37119
47196,345406,Accordius Health And Rehabilitation,70,43.8,38 CARTERS ROAD,GATESVILLE,27938,36.39116,-76.738249,Gates,73,37073
47206,345408,Brian Center Southpoint,140,99.6,6000 FAYETTEVILLE ROAD,DURHAM,27713,35.9176587,-78.9321985,Durham,63,37063
47211,345409,Pembroke Center,84,67.8,310 E WARDELL DRIVE,PEMBROKE,28372,34.68366454,-79.18170957,Robeson,155,37155
47216,345410,Central Continuing Care,120,66.6,1287 NEWSOME STREET,MOUNT AIRY,27030,36.48120191,-80.60184084,Surry,171,37171
47221,345411,Haywood Nursing And Rehabilitation Center,90,51.7,516 WALL STREET,WAYNESVILLE,28786,35.49354091,-82.98233515,Haywood,87,37087
47226,345412,Brantwood Nh & Retirement Cent,80,50.5,1038 COLLEGE STREET,OXFORD,27565,36.32596169,-78.59449436,Granville,77,37077
47231,345413,Fleshers Fairview Health Care,106,72.3,3016 CANE CREEK ROAD,FAIRVIEW,28730,35.50652759,-82.41684032,Buncombe,21,37021
47236,345414,"Haymount Rehabilitation & Nursing Center, Inc",98,78.9,2346 BARRINGTON CIRCLE,FAYETTEVILLE,28303,35.07100778,-78.91945214,Cumberland,51,37051
47241,345415,Pineville Rehabilitation And Living Ctr,106,53.4,1010 LAKEVIEW DRIVE,PINEVILLE,28134,35.07809773,-80.89813491,Mecklenburg,119,37119
47246,345416,Bermuda Village Retirement Center,36,34.1,142 BERMUDA VILLAGE DRIVE,BERMUDA RUN,27006,35.995618,-80.430653,Davie,59,37059
47251,345417,Hillside Nursing Center Of Wake Forest,130,87.8,968 EAST WAIT AVENUE,WAKE FOREST,27588,35.97136745,-78.49308848,Wake,183,37183
47256,345418,Pelican Health At Asheville,106,78.7,1984 US HIGHWAY 70,SWANNANOA,28778,35.59407,-82.43257,Buncombe,21,37021
47261,345419,Lexington Health Care Center,90,76.4,17 CORNELIA DRIVE,LEXINGTON,27292,35.81740476,-80.24121135,Davidson,57,37057
47266,345420,Alamance Health Care Center,180,145.0,1987 HILTON ROAD,BURLINGTON,27217,36.09963588,-79.40342331,Alamance,1,37001
47271,345421,The Laurels Of Chatham,140,111.1,72 CHATHAM BUSINESS PARK,PITTSBORO,27312,35.71909265,-79.16138335,Chatham,37,37037
47276,345423,Wilson Rehabilitation And Nursing Center,90,63.2,1705 SOUTH TARBORO STREET,WILSON,27893,35.921855,-77.805309,Wilson,195,37195
47281,345425,Fair Haven Home Inc,30,23.9,149 FAIR HAVEN DRIVE,BOSTIC,28018,35.33808,-81.80789,Rutherford,161,37161
47286,345426,Valley View Care & Rehab Center,76,37.9,551 KENT STREET,ANDREWS,28901,35.19582102,-83.83846131,Cherokee,39,37039
47291,345428,The Laurels Of Salisbury,60,68.6,215 LASH DRIVE,SALISBURY,28147,35.6940481,-80.52298885,Rowan,159,37159
47296,345429,Peak Resources - Pinelake,90,80.9,801 PINEHURST AVENUE,CARTHAGE,28327,35.335651,-79.41515,Moore,125,37125
47301,345431,Bryan Health And Rehab,60,39.7,921 JUNIOR HIGH SCHOOL ROAD,SCOTLAND NECK,27874,36.12932145,-77.42944048,Halifax,83,37083
47306,345432,Western North Carolina Baptist Home,80,29.9,213 RICHMOND HILL DRIVE,ASHEVILLE,28806,35.613163,-82.584165,Buncombe,21,37021
47311,345433,Clay County Care Center,90,62.8,86 VALLEY HIDEAWAY DRIVE,HAYESVILLE,28904,35.04224288,-83.80947413,Clay,43,37043
47316,345434,Carver Living Center,232,149.6,303 EAST CARVER STREET,DURHAM,27704,36.0425751,-78.8936804,Durham,63,37063
47321,345436,Wellington Rehabilitation And Healthcare,80,52.2,1000 TANDAL PLACE,KNIGHTDALE,27545,35.793497,-78.510154,Wake,183,37183
47326,345437,Eckerd Living Center,80,50.6,250 HOSPITAL DRIVE,HIGHLANDS,28741,35.086943,-83.18542,Macon,113,37113
47331,345438,The Laurels Of Summit Ridge,60,49.3,100 RICEVILLE ROAD,ASHEVILLE,28805,35.59030334,-82.48624646,Buncombe,21,37021
47336,345439,"Peak Resources - Brookshire, Inc",80,53.8,300 MEADOWLANDS DRIVE,HILLSBOROUGH,27278,36.05983,-79.07979,Orange,135,37135
47341,345441,Alexandria Place,60,47.9,1770 OAK HOLLOW ROAD,GASTONIA,28054,35.287277,-81.157995,Gaston,71,37071
47346,345442,Forrest Oakes Healthcare Center,60,43.1,620 HEATHWOOD DRIVE,ALBEMARLE,28001,35.35467559,-80.1600462,Stanly,167,37167
47351,345443,Oak Forest Health And Rehabilitation,170,132.6,5680 WINDY HILL DRIVE,WINSTON SALEM,27105,36.19541636,-80.26105445,Forsyth,67,37067
47356,345445,Glenaire,71,59.0,4000 GLENAIRE CIRCLE,CARY,27511,35.7752774,-78.7851068,Wake,183,37183
47361,345446,College Pines Health And Rehabilitation,100,89.8,95 LOCUST STREET,CONNELLY SPG,28612,35.74587,-81.5214,Burke,23,37023
47366,345447,Emerald Ridge Rehab And Care Center,100,74.0,25 REYNOLDS MOUNTAIN BOULEVARD,ASHEVILLE,28804,35.64552,-82.57578,Buncombe,21,37021
47371,345448,Maple Grove Health And Rehabilitation Center,210,116.0,308 WEST MEADOWVIEW ROAD,GREENSBORO,27406,36.0394251,-79.7958352,Guilford,81,37081
47376,345449,Universal Health Care/King,96,77.7,115 WHITE ROAD,KING,27021,36.28306185,-80.37386922,Stokes,169,37169
47381,345450,Westwood Health And Rehabilitation,68,51.6,625 ASHLAND STREET,ARCHDALE,27263,35.9177768,-79.95733233,Randolph,151,37151
47386,345457,Belaire Health Care Center,80,72.5,2065 LYON STREET,GASTONIA,28052,35.23329492,-81.20559162,Gaston,71,37071
47391,345458,Treyburn Rehabilitation Center,132,83.0,2059 TORREDGE ROAD,DURHAM,27712,36.0987288,-78.8606277,Durham,63,37063
47396,345459,Willowbrooke Court Sc Ctr At Tryon Estates,33,18.9,619 LAUREL LAKE DRIVE,COLUMBUS,28722,35.23276,-82.20149,Polk,149,37149
47401,345460,Guilford Health Care Center,110,93.6,2041 WILLOW ROAD,GREENSBORO,27406,36.04021584,-79.76229982,Guilford,81,37081
47406,345462,The Oaks-Brevard,120,71.2,300 MORRIS ROAD,BREVARD,28712,35.261463,-82.710067,Transylvania,175,37175
47411,345463,Life Care Center Of Hendersonville,80,59.4,400 THOMPSON STREET,HENDERSONVILLE,28792,35.3375095,-82.4462172,Henderson,89,37089
47416,345464,Oak Grove Health Care Center,60,43.4,518 OLD US HIGHWAY 221,RUTHERFORDTON,28139,35.39397,-81.95517,Rutherford,161,37161
47421,345465,Bayview Nursing & Rehab Center,60,46.2,3003 KENSINGTON PARK DRIVE,NEW BERN,28560,35.14069065,-77.10181437,Craven,49,37049
47426,345466,Willowbrook Rehabilitation And Care Center,76,62.5,333 EAST LEE STREET,YADKINVILLE,27055,36.126029,-80.652574,Yadkin,197,37197
47431,345467,Novant Health Presbyterian Medical Center-Snu,12,,200 HAWTHORNE LANE,CHARLOTTE,28207,35.21243755,-80.82430051,Mecklenburg,119,37119
47436,345468,Liberty Commons Rehabilitation Center,82,66.0,121 RACINE DRIVE,WILMINGTON,28403,34.24281066,-77.86052271,New Hanover,129,37129
47441,345471,Mecklenburg Health & Rehabilitation,100,68.5,2415 SANDY PORTER ROAD,CHARLOTTE,28273,35.1358843,-80.94138561,Mecklenburg,119,37119
47446,345472,Southwood Nursing And Retirement,100,47.9,180 SOUTHWOOD DRIVE,CLINTON,28328,34.98226511,-78.30712392,Sampson,163,37163
47451,345473,Wilora Lake Healthcare Center,70,43.7,6001 WILORA LAKE ROAD,CHARLOTTE,28212,35.210534,-80.7472,Mecklenburg,119,37119
47456,345474,Friends Homes West,20,17.3,6100 W FRIENDLY AVENUE,GREENSBORO,27410,36.087834,-79.897207,Guilford,81,37081
47461,345475,Tsali Care Center,72,50.9,55 ECHOTA CHURCH ROAD,CHEROKEE,28719,35.46675,-83.35869,Swain,173,37173
47466,345477,The Oaks At Sweeten Creek,100,69.6,3864 SWEETEN CREEK ROAD,ARDEN,28704,35.47053331,-82.51455138,Buncombe,21,37021
47471,345478,Harnett Woods Nursing And Rehabilitation Center,100,66.3,604 LUCAS ROAD,DUNN,28334,35.312682,-78.650272,Harnett,85,37085
47476,345479,Salemtowne,100,73.3,1550 BABCOCK DRIVE,WINSTON SALEM,27106,36.155274,-80.279099,Forsyth,67,37067
47481,345481,Woodlands Nursing & Rehabilitation Center,80,59.6,400 PELT DRIVE,FAYETTEVILLE,28301,35.08795493,-78.91328177,Cumberland,51,37051
47486,345482,Brookdale Carriage Club Providence,14,4.4,5804 OLD PROVIDENCE ROAD,CHARLOTTE,28226,35.13449231,-80.78463048,Mecklenburg,119,37119
47491,345483,Shaire Nursing Center,60,52.7,1450 SHAIRE CENTER DRIVE,LENOIR,28645,35.854596,-81.53606,Caldwell,27,37027
47501,345487,Cherry Point Bay Nursing And Rehabilitation Center,70,55.7,110 MCCOTTER BOULEVARD,HAVELOCK,28532,34.87866688,-76.88583208,Craven,49,37049
47506,345489,Saturn Nursing And Rehabilitation Center,120,94.0,1930 WEST SUGAR CREEK ROAD,CHARLOTTE,28262,35.28908709,-80.79525451,Mecklenburg,119,37119
47511,345490,Ayden Court Nursing And Rehabilitation Center,82,70.1,128 SNOW HILL ROAD,AYDEN,28513,35.284487,-77.57714,Pitt,147,37147
47516,345491,Croatan Ridge Nursing And Rehabilitation Center,64,42.9,210 FOXHALL ROAD,NEWPORT,28570,34.799235,-76.87,Carteret,31,37031
47521,345492,Nc State Veterans Home - Fayetteville,150,113.9,214 COCHRAN AVENUE,FAYETTEVILLE,28301,35.09102786,-78.87418829,Cumberland,51,37051
47526,345493,Hendersonville Health And Rehabilitation,130,95.2,104 COLLEGE DRIVE,FLAT ROCK,28731,35.30308,-82.417569,Henderson,89,37089
47531,345494,Peak Resources -  Gastonia,104,79.5,2780 X-RAY DRIVE,GASTONIA,28054,35.27582693,-81.14036189,Gaston,71,37071
47536,345495,The Stewart Health Center,56,41.1,6920 MARCHING DUCK DRIVE,CHARLOTTE,28210,35.13596839,-80.85266283,Mecklenburg,119,37119
47541,345496,Liberty Commons Nursing & Rehab Alamance,90,57.0,791 BOONE STATION DRIVE,BURLINGTON,27215,36.072521,-79.502814,Alamance,1,37001
47546,345499,Litchford Falls Healthcare,70,74.2,8200 LITCHFORD ROAD,RALEIGH,27615,35.890189,-78.602515,Wake,183,37183
47551,345500,Windsor Point Continuing Care,45,18.4,1221 BROAD STREET,FUQUAY VARINA,27526,35.60087,-78.80377,Harnett,85,37085
47556,345501,Croasdaile Village,110,72.2,2600 CROASDAILE FARM PARKWAY,DURHAM,27705,36.0475586,-78.9387689,Durham,63,37063
47561,345502,Lake Park Nursing And Rehabilitation Center,120,69.1,3315 FAITH CHURCH ROAD,INDIAN TRAIL,28079,35.07758735,-80.63668549,Union,179,37179
47566,345503,Liberty Commons Nsg & Rehab  Ctr Of Rowan County,90,65.6,4412 SOUTH MAIN STREET,SALISBURY,28147,35.62349978,-80.52941539,Rowan,159,37159
47571,345505,Carolina Rehab Center Of Cumberland,136,121.8,4600 CUMBERLAND ROAD,FAYETTEVILLE,28306,35.01832,-78.918544,Cumberland,51,37051
47576,345506,Whitestone  A Masonic And Eastern Star Community,60,26.7,700 SOUTH HOLDEN ROAD,GREENSBORO,27407,36.064149,-79.847964,Guilford,81,37081
47581,345507,Autumn Care Of Myrtle Grove,90,78.8,5725 CAROLINA BEACH ROAD,WILMINGTON,28412,34.155764,-77.908926,New Hanover,129,37129
47586,345508,Unc Rex Rehab & Nursing Care Center Of Apex,107,74.3,911 SOUTH HUGHES STREET,APEX,27502,35.7227646,-78.8510976,Wake,183,37183
47591,345509,Accordius Health At Aberdeen,90,59.9,915 PEE DEE ROAD,ABERDEEN,28315,35.11838473,-79.41604446,Moore,125,37125
47596,345510,Prodigy Transitional Rehab,118,80.7,911 WESTERN BOULEVARD,TARBORO,27886,35.89564136,-77.55553132,Edgecombe,65,37065
47601,345511,Autumn Care Of Statesville,103,63.9,2001 VANHAVEN DRIVE,STATESVILLE,28625,35.794902,-80.850841,Iredell,97,37097
47606,345512,Cypress Glen Retirement Community,6,4.7,1000 HICKORY STREET,GREENVILLE,27858,35.61049425,-77.34869536,Pitt,147,37147
47611,345513,Tower Nursing And Rehabilitation Center,180,70.0,3609 BOND STREET,RALEIGH,27604,35.80273813,-78.58184637,Wake,183,37183
47616,345514,Autumn Care Of Nash,60,43.8,1210 EASTERN AVENUE,NASHVILLE,27856,35.9708272,-77.9372469,Nash,127,37127
47621,345515,Pruitthealth-Town Center,70,47.9,6300 ROBERTA ROAD,HARRISBURG,28075,35.327001,-80.648636,Cabarrus,25,37025
47626,345516,Conover Nursing And Rehabilitation Center,90,68.9,920 4TH STREET SOUTHWEST,CONOVER,28613,35.70378592,-81.23262355,Catawba,35,37035
47631,345518,Inn At Quail Haven Village,60,33.5,155 BLAKE BOULEVARD,PINEHURST,28374,35.17092129,-79.46566805,Moore,125,37125
47636,345519,Liberty Commons Nsg & Rehab Ctr Of Johnston Cty,100,81.0,2315 HIGHWAY 242 NORTH,BENSON,27504,35.40369,-78.54312,Johnston,101,37101
47641,345520,Pelican Health Thomasville,120,65.1,1028 BLAIR STREET,THOMASVILLE,27360,35.89003028,-80.06395641,Davidson,57,37057
47646,345522,Universal Health Care/Fletcher,90,69.4,86 OLD AIRPORT ROAD,FLETCHER,28732,35.4414583,-82.50014693,Henderson,89,37089
47651,345523,Universal Health Care/Ramseur,90,75.0,7166 JORDON ROAD,RAMSEUR,27316,35.741324,-79.642423,Randolph,151,37151
47656,345525,The Gardens Of Taylor Glen Ret Com,8,1.5,3700 TAYLOR GLEN LANE,CONCORD,28027,35.3829,-80.67233,Cabarrus,25,37025
47661,345526,Carolina Rehab Center Of Burke,90,78.0,3647 MILLER BRIDGE ROAD,CONNELLY SPG,28612,35.713443,-81.468698,Burke,23,37023
47666,345528,River Landing At Sandy Ridge,60,45.8,1575 JOHN KNOX DRIVE,COLFAX,27235,36.064134,-80.015489,Guilford,81,37081
47671,345529,Universal Health Care/North Raleigh,132,96.1,5201 CLARKS FORK DRIVE NW,RALEIGH,27616,35.889802,-78.556329,Wake,183,37183
47676,345530,Penn Nursing Center,82,66.2,618-A S MAIN STREET,REIDSVILLE,27320,36.35285635,-79.66646987,Rockingham,157,37157
47681,345531,Nc State Veterans Home - Salisbury,99,62.3,"1601 BRENNER AVE, BUILDNG #10",SALISBURY,28145,35.795543,-78.64439,Rowan,159,37159
47686,345532,Liberty Commons Nsg And Rehab Ctr Of Lee County,80,50.6,310 COMMERCE DRIVE,SANFORD,27332,35.42140306,-79.12512329,Lee,105,37105
47691,345533,The Cedars Of Chapel Hill,12,2.2,101 GREEN CEDAR LANE,CHAPEL HILL,27517,35.909448,-79.0073073,Durham,63,37063
47696,345534,Sanford Health & Rehabilitation Co,131,98.7,2702 FARRELL ROAD,SANFORD,27330,35.568993,-79.124867,Lee,105,37105
47701,345535,Adams Farm Living & Rehabilitation,120,85.2,5100 MACKAY ROAD,JAMESTOWN,27282,36.017309,-79.900447,Guilford,81,37081
47706,345537,"Peak Resources-Wilmington, Inc",110,77.1,2305 SILVER STREAM LANE,WILMINGTON,28401,34.19725384,-77.93327427,New Hanover,129,37129
47711,345538,Pruitthealth-Raleigh,150,89.8,2420 LAKE WHEELER ROAD,RALEIGH,27603,35.7478915,-78.67529015,Wake,183,37183
47716,345539,The Arbor,16,2.7,300 CLYNELISH CLOSE,PITTSBORO,27312,35.720904,-79.175653,Chatham,37,37037
47721,345541,Olde Knox Commons At The Villages Of Mecklenburg,114,68.2,13825 HUNTON LANE,HUNTERSVILLE,28078,35.4188439,-80.86703,Mecklenburg,119,37119
47726,345542,The Forest At Duke Inc,4,1.5,2701 PICKETT ROAD,DURHAM,27705,35.9739216,-78.9486183,Durham,63,37063
47731,345543,Bermuda Commons Nursing And Rehabilitation Center,117,66.9,316 NC HIGHWAY 801 SOUTH,ADVANCE,27006,35.944643,-80.408091,Davie,59,37059
47736,345544,Asbury Health And Rehabilitation Center,120,90.4,3211 BISHOPS WAY LANE,CHARLOTTE,28215,35.231066,-80.770089,Mecklenburg,119,37119
47741,345545,Twin Lakes Community Memory Care,16,12.0,3810 HERITAGE DRIVE,BURLINGTON,27215,36.084478,-79.518846,Alamance,1,37001
47746,345546,The Rosewood Health Center,36,34.8,8710 CYPRESS CLUB DRIVE,RALEIGH,27615,35.89780766,-78.65983,Wake,183,37183
47751,345547,Camden Health And Rehabilitation,135,119.4,1 MARITHE COURT,GREENSBORO,27407,36.0495407,-79.883146,Guilford,81,37081
47756,345548,Ashton Health And Rehabilitation,134,99.7,5533 BURLINGTON ROAD,MCLEANSVILLE,27301,36.08778485,-79.66566126,Guilford,81,37081
47761,345549,Universal Health Care / Brunswick,90,72.7,1070 OLD OCEAN HIGHWAY,BOLIVIA,28422,34.064441,-78.150684,Brunswick,19,37019
47766,345550,White Oak Of Waxhaw,100,81.0,700 HOWIE MINE ROAD,WAXHAW,28173,34.926514,-80.735251,Union,179,37179
47771,345551,Pruitthealth-Carolina Point,138,86.2,5935 MOUNT SINAI ROAD,DURHAM,27705,35.989785,-78.991157,Durham,63,37063
47776,345552,The Shannon Gray Rehabilitation & Recovery Center,150,64.2,2005 SHANNON GRAY COURT,JAMESTOWN,27282,35.9891798,-79.9506015,Guilford,81,37081
47781,345553,Autumn Care Of Fayetteville,90,72.5,1401 71ST SCHOOL ROAD,FAYETTEVILLE,28314,35.04427557,-79.00763085,Cumberland,51,37051
47786,345554,Trinity Grove,100,88.2,631 JUNCTION CREEK DRIVE,WILMINGTON,28412,34.142809,-77.888822,New Hanover,129,37129
47791,345555,Hillcrest Raleigh At Crabtree Valley,134,88.2,3830 BLUE RIDGE ROAD,RALEIGH,27612,35.8318196,-78.6813611,Wake,183,37183
47796,345556,Deerfield Episcopal  Retirement,62,48.1,1617  HENDERSONVELLE ROAD,ASHEVILLE,28803,35.51305,-82.52757,Buncombe,21,37021
47801,345557,Azalea Health & Rehab Center,80,61.4,3800 INDEPENDENCE BOULEVARD,WILMINGTON,28412,34.17846621,-77.92252157,New Hanover,129,37129
47806,345558,Nc State Veterans Home-Black Mountain,100,88.5,62 LAKE EDEN ROAD,BLACK MOUNTAIN,28711,35.622629,-82.366684,Buncombe,21,37021
47811,345559,Homestead Hills,40,19.5,2101 HOMESTEAD HILLS DRIVE,WINSTON SALEM,27103,36.057015,-80.303972,Forsyth,67,37067
47816,345560,Nc State Veterans Home-Kinston,100,85.9,2150 HULL ROAD,KINSTON,28504,35.28133111,-77.62136103,Lenoir,107,37107
47821,345561,Universal Health Care/Fuquay-Varina,100,89.0,410 S JUDD PARKWAY SE,FUQUAY VARINA,27526,35.57852546,-78.78573212,Wake,183,37183
47826,345562,Clear Creek Nursing & Rehabilitation Center,120,55.0,10506 CLEAR CREEK COMMERCE DRIVE,MINT HILL,28227,35.21928806,-80.63830388,Mecklenburg,119,37119
47831,345563,Pavilion Health Center At Brightmore,108,82.7,10011 PROVIDENCE ROAD WEST,CHARLOTTE,28277,35.0375279,-80.83065991,Mecklenburg,119,37119
47836,345564,Sharon Towers,19,7.2,5100 SHARON ROAD,CHARLOTTE,28210,35.14297676,-80.83370818,Mecklenburg,119,37119
47841,345565,Trinity Elms,100,75.5,7449 FAIR OAKS DRIVE,CLEMMONS,27012,36.02368596,-80.40648589,Forsyth,67,37067
47846,345566,Pruitthealth-Union Pointe,90,77.9,3510 WEST HIGHWAY 74,MONROE,28110,35.032903,-80.589725,Union,179,37179
47851,345567,Autumn Care Of Cornelius,102,85.1,19530 MOUNT ZION PARKWAY,CORNELIUS,28031,35.47320104,-80.85103421,Mecklenburg,119,37119
47856,345568,Davis Health & Wellness Ctr At Cambridge Villag,20,15.8,"83 CAVALIER DRIVE, STE 200",WILMINGTON,28405,34.23338,-77.83456,New Hanover,129,37129
47861,345569,Springbrook Nursing & Rehabilitation  Center,100,87.2,195 SPRINGBROOK AVENUE,CLAYTON,27520,35.62891,-78.50713,Johnston,101,37101
47866,345570,Huntersville Health & Rehab Center,90,85.3,13835 BOREN STREET,HUNTERSVILLE,28078,35.40331463,-80.8662872,Mecklenburg,119,37119
47871,345571,Bradley Creek Health Center,30,29.5,740 DIAMOND SHOALS ROAD,WILMINGTON,28403,34.2367624,-77.8533418,New Hanover,129,37129
47876,345572,The Cardinal At North Hills,15,11.0,311 GARDEN AT NORTH HILLS STREET,RALEIGH,27609,35.8354006,-78.6356934,Wake,183,37183
47881,345573,Arbor Acres United Methodist Retirement Community,6,3.5,1250 ARBOR ROAD,WINSTON SALEM,27104,36.0990119,-80.2788589,Forsyth,67,37067
47886,345574,Bellarose Nursing And Rehab,100,70.3,200 BELLAROSE LAKE WAY,GARNER,27529,35.6702495,-78.6020955,Wake,183,37183
47891,345575,Brunswick Health & Rehab Center,100,68.7,9600 NO 5 SCHOOL ROAD,ASH,28420,33.953889,-78.598015,Brunswick,19,37019
47896,345576,Parkview Health & Rehab Center,108,63.0,1716 LEGION ROAD,CHAPEL HILL,27517,35.9392964,-79.0160663,Durham,63,37063
47901,345577,Swift Creek Health Center,28,15.9,221 BRIGHTMORE DRIVE,CARY,27511,35.77026,-78.75641,Wake,183,37183
47906,345578,Briar Creek Health Center,22,,6041 PIEDMONT ROW DRIVE,CHARLOTTE,28210,35.1514322,-80.8399572,Mecklenburg,119,37119
47911,34A001,Black Mountain Neuro-Medical Treatment Center,165,133.6,932 OLD US HIGHWAY 70,BLACK MOUNTAIN,28711,35.61002071,-82.34256646,Buncombe,21,37021
47916,34A002,O'Berry Neuro-Medical Treatment Center,144,120.0,400 OLD SMITHFIELD ROAD,GOLDSBORO,27533,35.40021205,-78.03693475,Wayne,191,37191
